[
  {
    "userId": 1,
    "id": 1,
    "title": "quidem molestiae enim",
    "adress":{
     "street":"example",
     "geo":{
        "lat":"sddkjfhds"
     
     }
    
    
    }
  },
  {
    "userId": 1,
    "id": 2,
    "title": "sunt qui excepturi placeat culpa",
    "adress":{
     "street":"example",
     "geo":{
        "lat":"sddkjfhds"
     
     }
    
    
    }
  },
  {
    "userId": 1,
    "id": 3,
    "title": "omnis laborum odio",
    "adress":{
     "street":"example",
     "geo":{
        "lat":"sddkjfhds"
     
     }
    
    
    }
  },
  {
    "userId": 1,
    "id": 4,
    "title": "non esse culpa molestiae omnis sed optio",
    "adress":{
     "street":"example",
     "geo":{
        "lat":"sddkjfhds"
     
     }
    
    
    }
  },
  {
    "userId": 1,
    "id": 5,
    "title": "eaque aut omnis a",
    "adress":{
     "street":"example",
     "geo":{
        "lat":"sddkjfhds"
     
     }
    
    
    }
  },
  {
    "userId": 1,
    "id": 6,
    "title": "natus impedit quibusdam illo est",
    "adress":{
     "street":"example",
     "geo":{
        "lat":"sddkjfhds"
     
     }
    
    
    }
  },
  {
    "userId": 1,
    "id": 7,
    "title": "quibusdam autem aliquid et et quia",
    "adress":{
     "street":"example",
     "geo":{
        "lat":"sddkjfhds"
     
     }
    
    
    }
  },
  {
    "userId": 1,
    "id": 8,
    "title": "qui fuga est a eum",
    "adress":{
     "street":"example",
     "geo":{
        "lat":"sddkjfhds"
     
     }
    
    
    }
  },
  {
    "userId": 1,
    "id": 9,
    "title": "saepe unde necessitatibus rem",
    "adress":{
     "street":"example",
     "geo":{
        "lat":"sddkjfhds"
     
     }
    
    
    }
  },
  {
    "userId": 1,
    "id": 10,
    "title": "distinctio laborum qui",
    "adress":{
     "street":"example",
     "geo":{
        "lat":"sddkjfhds"
     
     }
    
    
    }
  }
]
